header: 
  seq: 23054
  stamp: 
    secs: 1669693852
    nsecs: 211405788
  frame_id: "imu_link"
orientation: 
  x: -0.005913315806537867
  y: 0.012323870323598385
  z: -0.18334051966667175
  w: 0.9829501509666443
orientation_covariance: [0.0024999999441206455, 0.0, 0.0, 0.0, 0.0024999999441206455, 0.0, 0.0, 0.0, 0.0024999999441206455]
angular_velocity: 
  x: 0.0
  y: 0.0
  z: 0.0
angular_velocity_covariance: [0.019999999552965164, 0.0, 0.0, 0.0, 0.019999999552965164, 0.0, 0.0, 0.0, 0.019999999552965164]
linear_acceleration: 
  x: -0.2388216108083725
  y: -0.17657236754894257
  z: 9.812036514282227
linear_acceleration_covariance: [0.03999999910593033, 0.0, 0.0, 0.0, 0.03999999910593033, 0.0, 0.0, 0.0, 0.03999999910593033]
---
header: 
  seq: 23055
  stamp: 
    secs: 1669693852
    nsecs: 213405788
  frame_id: "imu_link"
orientation: 
  x: -0.005347769241780043
  y: 0.011527094058692455
  z: -0.18334057927131653
  w: 0.9829628467559814
orientation_covariance: [0.0024999999441206455, 0.0, 0.0, 0.0, 0.0024999999441206455, 0.0, 0.0, 0.0, 0.0024999999441206455]
angular_velocity: 
  x: 0.0
  y: 0.0
  z: 0.0
angular_velocity_covariance: [0.019999999552965164, 0.0, 0.0, 0.0, 0.019999999552965164, 0.0, 0.0, 0.0, 0.019999999552965164]
linear_acceleration: 
  x: -0.18495208024978638
  y: -0.12509703636169434
  z: 9.925163269042969
linear_acceleration_covariance: [0.03999999910593033, 0.0, 0.0, 0.0, 0.03999999910593033, 0.0, 0.0, 0.0, 0.03999999910593033]
---
header: 
  seq: 23056
  stamp: 
    secs: 1669693852
    nsecs: 218405788
  frame_id: "imu_link"
orientation: 
  x: -0.005347769241780043
  y: 0.011527094058692455
  z: -0.18334057927131653
  w: 0.9829628467559814
orientation_covariance: [0.0024999999441206455, 0.0, 0.0, 0.0, 0.0024999999441206455, 0.0, 0.0, 0.0, 0.0024999999441206455]
angular_velocity: 
  x: 0.0
  y: 0.0
  z: 0.0
angular_velocity_covariance: [0.019999999552965164, 0.0, 0.0, 0.0, 0.019999999552965164, 0.0, 0.0, 0.0, 0.019999999552965164]
linear_acceleration: 
  x: -0.18495208024978638
  y: -0.12509703636169434
  z: 9.925163269042969
linear_acceleration_covariance: [0.03999999910593033, 0.0, 0.0, 0.0, 0.03999999910593033, 0.0, 0.0, 0.0, 0.03999999910593033]
---
header: 
  seq: 23057
  stamp: 
    secs: 1669693852
    nsecs: 225405788
  frame_id: "imu_link"
orientation: 
  x: -0.005074996966868639
  y: 0.010879680514335632
  z: -0.18334248661994934
  w: 0.9829713702201843
orientation_covariance: [0.0024999999441206455, 0.0, 0.0, 0.0, 0.0024999999441206455, 0.0, 0.0, 0.0, 0.0024999999441206455]
angular_velocity: 
  x: 0.0
  y: 0.0
  z: 0.0
angular_velocity_covariance: [0.019999999552965164, 0.0, 0.0, 0.0, 0.019999999552965164, 0.0, 0.0, 0.0, 0.019999999552965164]
linear_acceleration: 
  x: -0.12629413604736328
  y: -0.09397241473197937
  z: 9.82759952545166
linear_acceleration_covariance: [0.03999999910593033, 0.0, 0.0, 0.0, 0.03999999910593033, 0.0, 0.0, 0.0, 0.03999999910593033]
---
header: 
  seq: 23058
  stamp: 
    secs: 1669693852
    nsecs: 232405788
  frame_id: "imu_link"
orientation: 
  x: -0.004410413093864918
  y: 0.010667390190064907
  z: -0.18333742022514343
  w: 0.9829778075218201
orientation_covariance: [0.0024999999441206455, 0.0, 0.0, 0.0, 0.0024999999441206455, 0.0, 0.0, 0.0, 0.0024999999441206455]
angular_velocity: 
  x: 0.0
  y: 0.0
  z: 0.0
angular_velocity_covariance: [0.019999999552965164, 0.0, 0.0, 0.0, 0.019999999552965164, 0.0, 0.0, 0.0, 0.019999999552965164]
linear_acceleration: 
  x: -0.18375498056411743
  y: -0.07062894850969315
  z: 9.836577415466309
linear_acceleration_covariance: [0.03999999910593033, 0.0, 0.0, 0.0, 0.03999999910593033, 0.0, 0.0, 0.0, 0.03999999910593033]
---
header: 
  seq: 23059
  stamp: 
    secs: 1669693852
    nsecs: 239405788
  frame_id: "imu_link"
orientation: 
  x: -0.0038404641672968864
  y: 0.010261635296046734
  z: -0.18333443999290466
  w: 0.9829851984977722
orientation_covariance: [0.0024999999441206455, 0.0, 0.0, 0.0, 0.0024999999441206455, 0.0, 0.0, 0.0, 0.0024999999441206455]
angular_velocity: 
  x: 0.0
  y: 0.0
  z: 0.0
angular_velocity_covariance: [0.019999999552965164, 0.0, 0.0, 0.0, 0.019999999552965164, 0.0, 0.0, 0.0, 0.019999999552965164]
linear_acceleration: 
  x: -0.17657236754894257
  y: -0.09457096457481384
  z: 9.814431190490723
linear_acceleration_covariance: [0.03999999910593033, 0.0, 0.0, 0.0, 0.03999999910593033, 0.0, 0.0, 0.0, 0.03999999910593033]
---
header: 
  seq: 23060
  stamp: 
    secs: 1669693852
    nsecs: 246405788
  frame_id: "imu_link"
orientation: 
  x: -0.00499684875831008
  y: 0.010164394974708557
  z: -0.1833455115556717
  w: 0.982978880405426
orientation_covariance: [0.0024999999441206455, 0.0, 0.0, 0.0, 0.0024999999441206455, 0.0, 0.0, 0.0, 0.0024999999441206455]
angular_velocity: 
  x: 0.0
  y: 0.0
  z: 0.0
angular_velocity_covariance: [0.019999999552965164, 0.0, 0.0, 0.0, 0.019999999552965164, 0.0, 0.0, 0.0, 0.019999999552965164]
linear_acceleration: 
  x: -0.1801636815071106
  y: -0.16160860657691956
  z: 9.810839653015137
linear_acceleration_covariance: [0.03999999910593033, 0.0, 0.0, 0.0, 0.03999999910593033, 0.0, 0.0, 0.0, 0.03999999910593033]
---
header: 
  seq: 23061
  stamp: 
    secs: 1669693852
    nsecs: 296405788
  frame_id: "imu_link"
orientation: 
  x: -0.006707761436700821
  y: 0.005779114086180925
  z: -0.18338873982429504
  w: 0.9829962849617004
orientation_covariance: [0.0024999999441206455, 0.0, 0.0, 0.0, 0.0024999999441206455, 0.0, 0.0, 0.0, 0.0024999999441206455]
angular_velocity: 
  x: 0.0
  y: 0.0
  z: 0.0
angular_velocity_covariance: [0.019999999552965164, 0.0, 0.0, 0.0, 0.019999999552965164, 0.0, 0.0, 0.0, 0.019999999552965164]
linear_acceleration: 
  x: -0.15741875767707825
  y: -0.13706804811954498
  z: 9.820416450500488
linear_acceleration_covariance: [0.03999999910593033, 0.0, 0.0, 0.0, 0.03999999910593033, 0.0, 0.0, 0.0, 0.03999999910593033]
---
header: 
  seq: 23062
  stamp: 
    secs: 1669693852
    nsecs: 299405788
  frame_id: "imu_link"
orientation: 
  x: -0.006330786272883415
  y: 0.006137259304523468
  z: -0.18338428437709808
  w: 0.9829974174499512
orientation_covariance: [0.0024999999441206455, 0.0, 0.0, 0.0, 0.0024999999441206455, 0.0, 0.0, 0.0, 0.0024999999441206455]
angular_velocity: 
  x: 0.0
  y: 0.0
  z: 0.0
angular_velocity_covariance: [0.019999999552965164, 0.0, 0.0, 0.0, 0.019999999552965164, 0.0, 0.0, 0.0, 0.019999999552965164]
linear_acceleration: 
  x: -0.15682020783424377
  y: -0.0999579206109047
  z: 9.813234329223633
linear_acceleration_covariance: [0.03999999910593033, 0.0, 0.0, 0.0, 0.03999999910593033, 0.0, 0.0, 0.0, 0.03999999910593033]
---
header: 
  seq: 23063
  stamp: 
    secs: 1669693852
    nsecs: 306405788
  frame_id: "imu_link"
orientation: 
  x: -0.006013981066644192
  y: 0.006759290117770433
  z: -0.18337811529636383
  w: 0.98299640417099
orientation_covariance: [0.0024999999441206455, 0.0, 0.0, 0.0, 0.0024999999441206455, 0.0, 0.0, 0.0, 0.0024999999441206455]
angular_velocity: 
  x: 0.0
  y: 0.0
  z: 0.0
angular_velocity_covariance: [0.019999999552965164, 0.0, 0.0, 0.0, 0.019999999552965164, 0.0, 0.0, 0.0, 0.019999999552965164]
linear_acceleration: 
  x: -0.228047713637352
  y: -0.10594342648983002
  z: 9.853935241699219
linear_acceleration_covariance: [0.03999999910593033, 0.0, 0.0, 0.0, 0.03999999910593033, 0.0, 0.0, 0.0, 0.03999999910593033]
---
header: 
  seq: 23064
  stamp: 
    secs: 1669693852
    nsecs: 312405788
  frame_id: "imu_link"
orientation: 
  x: -0.0054392083548009396
  y: 0.007154916413128376
  z: -0.18337208032608032
  w: 0.9829981923103333
orientation_covariance: [0.0024999999441206455, 0.0, 0.0, 0.0, 0.0024999999441206455, 0.0, 0.0, 0.0, 0.0024999999441206455]
angular_velocity: 
  x: 0.0
  y: 0.0
  z: 0.0
angular_velocity_covariance: [0.019999999552965164, 0.0, 0.0, 0.0, 0.019999999552965164, 0.0, 0.0, 0.0, 0.019999999552965164]
linear_acceleration: 
  x: -0.18495208024978638
  y: -0.06404489278793335
  z: 9.795876502990723
linear_acceleration_covariance: [0.03999999910593033, 0.0, 0.0, 0.0, 0.03999999910593033, 0.0, 0.0, 0.0, 0.03999999910593033]
---
header: 
  seq: 23065
  stamp: 
    secs: 1669693852
    nsecs: 317405788
  frame_id: "imu_link"
orientation: 
  x: -0.0054392083548009396
  y: 0.007154916413128376
  z: -0.18337208032608032
  w: 0.9829981923103333
orientation_covariance: [0.0024999999441206455, 0.0, 0.0, 0.0, 0.0024999999441206455, 0.0, 0.0, 0.0, 0.0024999999441206455]
angular_velocity: 
  x: 0.0
  y: 0.0
  z: 0.0
angular_velocity_covariance: [0.019999999552965164, 0.0, 0.0, 0.0, 0.019999999552965164, 0.0, 0.0, 0.0, 0.019999999552965164]
linear_acceleration: 
  x: -0.18495208024978638
  y: -0.06404489278793335
  z: 9.795876502990723
linear_acceleration_covariance: [0.03999999910593033, 0.0, 0.0, 0.0, 0.03999999910593033, 0.0, 0.0, 0.0, 0.03999999910593033]
---
header: 
  seq: 23066
  stamp: 
    secs: 1669693852
    nsecs: 322405788
  frame_id: "imu_link"
orientation: 
  x: -0.005770125892013311
  y: 0.007774535566568375
  z: -0.18336988985538483
  w: 0.9829919338226318
orientation_covariance: [0.0024999999441206455, 0.0, 0.0, 0.0, 0.0024999999441206455, 0.0, 0.0, 0.0, 0.0024999999441206455]
angular_velocity: 
  x: 0.0
  y: 0.0
  z: 0.0
angular_velocity_covariance: [0.019999999552965164, 0.0, 0.0, 0.0, 0.019999999552965164, 0.0, 0.0, 0.0, 0.019999999552965164]
linear_acceleration: 
  x: -0.17298106849193573
  y: -0.17417816817760468
  z: 9.771934509277344
linear_acceleration_covariance: [0.03999999910593033, 0.0, 0.0, 0.0, 0.03999999910593033, 0.0, 0.0, 0.0, 0.03999999910593033]
---
header: 
  seq: 23067
  stamp: 
    secs: 1669693852
    nsecs: 332405788
  frame_id: "imu_link"
orientation: 
  x: -0.005427817814052105
  y: 0.008473671041429043
  z: -0.18336229026317596
  w: 0.9829895496368408
orientation_covariance: [0.0024999999441206455, 0.0, 0.0, 0.0, 0.0024999999441206455, 0.0, 0.0, 0.0, 0.0024999999441206455]
angular_velocity: 
  x: 0.0
  y: 0.0
  z: 0.0
angular_velocity_covariance: [0.019999999552965164, 0.0, 0.0, 0.0, 0.019999999552965164, 0.0, 0.0, 0.0, 0.019999999552965164]
linear_acceleration: 
  x: -0.14604629576206207
  y: -0.12449848651885986
  z: 9.790489196777344
linear_acceleration_covariance: [0.03999999910593033, 0.0, 0.0, 0.0, 0.03999999910593033, 0.0, 0.0, 0.0, 0.03999999910593033]
---
header: 
  seq: 23068
  stamp: 
    secs: 1669693852
    nsecs: 339405788
  frame_id: "imu_link"
orientation: 
  x: -0.0047456868924200535
  y: 0.008638878352940083
  z: -0.18335610628128052
  w: 0.9829928874969482
orientation_covariance: [0.0024999999441206455, 0.0, 0.0, 0.0, 0.0024999999441206455, 0.0, 0.0, 0.0, 0.0024999999441206455]
angular_velocity: 
  x: 0.0
  y: 0.0
  z: 0.0
angular_velocity_covariance: [0.019999999552965164, 0.0, 0.0, 0.0, 0.019999999552965164, 0.0, 0.0, 0.0, 0.019999999552965164]
linear_acceleration: 
  x: -0.15981295704841614
  y: -0.10235211998224258
  z: 9.864709854125977
linear_acceleration_covariance: [0.03999999910593033, 0.0, 0.0, 0.0, 0.03999999910593033, 0.0, 0.0, 0.0, 0.03999999910593033]
---
header: 
  seq: 23069
  stamp: 
    secs: 1669693852
    nsecs: 346405788
  frame_id: "imu_link"
orientation: 
  x: -0.004179185722023249
  y: 0.00904999952763319
  z: -0.183349147439003
  w: 0.982992947101593
orientation_covariance: [0.0024999999441206455, 0.0, 0.0, 0.0, 0.0024999999441206455, 0.0, 0.0, 0.0, 0.0024999999441206455]
angular_velocity: 
  x: 0.0
  y: 0.0
  z: 0.0
angular_velocity_covariance: [0.019999999552965164, 0.0, 0.0, 0.0, 0.019999999552965164, 0.0, 0.0, 0.0, 0.019999999552965164]
linear_acceleration: 
  x: -0.1735796183347702
  y: -0.10055647045373917
  z: 9.835380554199219
linear_acceleration_covariance: [0.03999999910593033, 0.0, 0.0, 0.0, 0.03999999910593033, 0.0, 0.0, 0.0, 0.03999999910593033]
---
header: 
  seq: 23070
  stamp: 
    secs: 1669693852
    nsecs: 353405788
  frame_id: "imu_link"
orientation: 
  x: -0.0047454312443733215
  y: 0.008637676946818829
  z: -0.18335609138011932
  w: 0.9829927682876587
orientation_covariance: [0.0024999999441206455, 0.0, 0.0, 0.0, 0.0024999999441206455, 0.0, 0.0, 0.0, 0.0024999999441206455]
angular_velocity: 
  x: 0.0
  y: 0.0
  z: 0.0
angular_velocity_covariance: [0.019999999552965164, 0.0, 0.0, 0.0, 0.019999999552965164, 0.0, 0.0, 0.0, 0.019999999552965164]
linear_acceleration: 
  x: -0.13826514780521393
  y: -0.13347674906253815
  z: 9.817423820495605
linear_acceleration_covariance: [0.03999999910593033, 0.0, 0.0, 0.0, 0.03999999910593033, 0.0, 0.0, 0.0, 0.03999999910593033]
---
header: 
  seq: 23071
  stamp: 
    secs: 1669693852
    nsecs: 379405788
  frame_id: "imu_link"
orientation: 
  x: -0.004766945261508226
  y: 0.009337392635643482
  z: -0.18335182964801788
  w: 0.9829870462417603
orientation_covariance: [0.0024999999441206455, 0.0, 0.0, 0.0, 0.0024999999441206455, 0.0, 0.0, 0.0, 0.0024999999441206455]
angular_velocity: 
  x: 0.0
  y: 0.0
  z: 0.0
angular_velocity_covariance: [0.019999999552965164, 0.0, 0.0, 0.0, 0.019999999552965164, 0.0, 0.0, 0.0, 0.019999999552965164]
linear_acceleration: 
  x: -0.2017114907503128
  y: -0.13347674906253815
  z: 9.750386238098145
linear_acceleration_covariance: [0.03999999910593033, 0.0, 0.0, 0.0, 0.03999999910593033, 0.0, 0.0, 0.0, 0.03999999910593033]
---
header: 
  seq: 23072
  stamp: 
    secs: 1669693852
    nsecs: 381405788
  frame_id: "imu_link"
orientation: 
  x: -0.00352143170312047
  y: 0.007553074508905411
  z: -0.1833524852991104
  w: 0.9830076098442078
orientation_covariance: [0.0024999999441206455, 0.0, 0.0, 0.0, 0.0024999999441206455, 0.0, 0.0, 0.0, 0.0024999999441206455]
angular_velocity: 
  x: 0.0
  y: 0.0
  z: 0.0
angular_velocity_covariance: [0.019999999552965164, 0.0, 0.0, 0.0, 0.019999999552965164, 0.0, 0.0, 0.0, 0.019999999552965164]
linear_acceleration: 
  x: -0.12629413604736328
  y: -0.08798690885305405
  z: 9.876081466674805
linear_acceleration_covariance: [0.03999999910593033, 0.0, 0.0, 0.0, 0.03999999910593033, 0.0, 0.0, 0.0, 0.03999999910593033]
---
header: 
  seq: 23073
  stamp: 
    secs: 1669693852
    nsecs: 386405788
  frame_id: "imu_link"
orientation: 
  x: -0.00352143170312047
  y: 0.007553074508905411
  z: -0.1833524852991104
  w: 0.9830076098442078
orientation_covariance: [0.0024999999441206455, 0.0, 0.0, 0.0, 0.0024999999441206455, 0.0, 0.0, 0.0, 0.0024999999441206455]
angular_velocity: 
  x: 0.0
  y: 0.0
  z: 0.0
angular_velocity_covariance: [0.019999999552965164, 0.0, 0.0, 0.0, 0.019999999552965164, 0.0, 0.0, 0.0, 0.019999999552965164]
linear_acceleration: 
  x: -0.12629413604736328
  y: -0.08798690885305405
  z: 9.876081466674805
linear_acceleration_covariance: [0.03999999910593033, 0.0, 0.0, 0.0, 0.03999999910593033, 0.0, 0.0, 0.0, 0.03999999910593033]
---
header: 
  seq: 23074
  stamp: 
    secs: 1669693852
    nsecs: 391405788
  frame_id: "imu_link"
orientation: 
  x: -0.003964564763009548
  y: 0.008102260529994965
  z: -0.1833527535200119
  w: 0.9830013513565063
orientation_covariance: [0.0024999999441206455, 0.0, 0.0, 0.0, 0.0024999999441206455, 0.0, 0.0, 0.0, 0.0024999999441206455]
angular_velocity: 
  x: 0.0
  y: 0.0
  z: 0.0
angular_velocity_covariance: [0.019999999552965164, 0.0, 0.0, 0.0, 0.019999999552965164, 0.0, 0.0, 0.0, 0.019999999552965164]
linear_acceleration: 
  x: -0.1478419452905655
  y: -0.11192892491817474
  z: 9.891045570373535
linear_acceleration_covariance: [0.03999999910593033, 0.0, 0.0, 0.0, 0.03999999910593033, 0.0, 0.0, 0.0, 0.03999999910593033]
---
header: 
  seq: 23075
  stamp: 
    secs: 1669693852
    nsecs: 398405788
  frame_id: "imu_link"
orientation: 
  x: -0.004440142307430506
  y: 0.008946850895881653
  z: -0.18335159122943878
  w: 0.9829922914505005
orientation_covariance: [0.0024999999441206455, 0.0, 0.0, 0.0, 0.0024999999441206455, 0.0, 0.0, 0.0, 0.0024999999441206455]
angular_velocity: 
  x: 0.0
  y: 0.0
  z: 0.0
angular_velocity_covariance: [0.019999999552965164, 0.0, 0.0, 0.0, 0.019999999552965164, 0.0, 0.0, 0.0, 0.019999999552965164]
linear_acceleration: 
  x: -0.2017114907503128
  y: -0.15562310814857483
  z: 9.806051254272461
linear_acceleration_covariance: [0.03999999910593033, 0.0, 0.0, 0.0, 0.03999999910593033, 0.0, 0.0, 0.0, 0.03999999910593033]
---
header: 
  seq: 23076
  stamp: 
    secs: 1669693852
    nsecs: 403405788
  frame_id: "imu_link"
orientation: 
  x: -0.004440142307430506
  y: 0.008946850895881653
  z: -0.18335159122943878
  w: 0.9829922914505005
orientation_covariance: [0.0024999999441206455, 0.0, 0.0, 0.0, 0.0024999999441206455, 0.0, 0.0, 0.0, 0.0024999999441206455]
angular_velocity: 
  x: 0.0
  y: 0.0
  z: 0.0
angular_velocity_covariance: [0.019999999552965164, 0.0, 0.0, 0.0, 0.019999999552965164, 0.0, 0.0, 0.0, 0.019999999552965164]
linear_acceleration: 
  x: -0.2017114907503128
  y: -0.15562310814857483
  z: 9.806051254272461
linear_acceleration_covariance: [0.03999999910593033, 0.0, 0.0, 0.0, 0.03999999910593033, 0.0, 0.0, 0.0, 0.03999999910593033]
---
header: 
  seq: 23077
  stamp: 
    secs: 1669693852
    nsecs: 410405788
  frame_id: "imu_link"
orientation: 
  x: -0.004865502472966909
  y: 0.009507586248219013
  z: -0.1833515763282776
  w: 0.9829850196838379
orientation_covariance: [0.0024999999441206455, 0.0, 0.0, 0.0, 0.0024999999441206455, 0.0, 0.0, 0.0, 0.0024999999441206455]
angular_velocity: 
  x: 0.0
  y: 0.0
  z: 0.0
angular_velocity_covariance: [0.019999999552965164, 0.0, 0.0, 0.0, 0.019999999552965164, 0.0, 0.0, 0.0, 0.019999999552965164]
linear_acceleration: 
  x: -0.16759411990642548
  y: -0.12988543510437012
  z: 9.818620681762695
linear_acceleration_covariance: [0.03999999910593033, 0.0, 0.0, 0.0, 0.03999999910593033, 0.0, 0.0, 0.0, 0.03999999910593033]
---
header: 
  seq: 23078
  stamp: 
    secs: 1669693852
    nsecs: 417405788
  frame_id: "imu_link"
orientation: 
  x: -0.004381146281957626
  y: 0.00900301244109869
  z: -0.18335072696208954
  w: 0.9829922318458557
orientation_covariance: [0.0024999999441206455, 0.0, 0.0, 0.0, 0.0024999999441206455, 0.0, 0.0, 0.0, 0.0024999999441206455]
angular_velocity: 
  x: 0.0
  y: 0.0
  z: 0.0
angular_velocity_covariance: [0.019999999552965164, 0.0, 0.0, 0.0, 0.019999999552965164, 0.0, 0.0, 0.0, 0.019999999552965164]
linear_acceleration: 
  x: -0.12749123573303223
  y: -0.07422025501728058
  z: 9.830592155456543
linear_acceleration_covariance: [0.03999999910593033, 0.0, 0.0, 0.0, 0.03999999910593033, 0.0, 0.0, 0.0, 0.03999999910593033]
---
header: 
  seq: 23079
  stamp: 
    secs: 1669693852
    nsecs: 424405788
  frame_id: "imu_link"
orientation: 
  x: -0.0041611515916883945
  y: 0.009667947888374329
  z: -0.18334494531154633
  w: 0.9829879403114319
orientation_covariance: [0.0024999999441206455, 0.0, 0.0, 0.0, 0.0024999999441206455, 0.0, 0.0, 0.0, 0.0024999999441206455]
angular_velocity: 
  x: 0.0
  y: 0.0
  z: 0.0
angular_velocity_covariance: [0.019999999552965164, 0.0, 0.0, 0.0, 0.019999999552965164, 0.0, 0.0, 0.0, 0.019999999552965164]
linear_acceleration: 
  x: -0.19153612852096558
  y: -0.11252747476100922
  z: 9.823409080505371
linear_acceleration_covariance: [0.03999999910593033, 0.0, 0.0, 0.0, 0.03999999910593033, 0.0, 0.0, 0.0, 0.03999999910593033]
---
header: 
  seq: 23080
  stamp: 
    secs: 1669693852
    nsecs: 469405788
  frame_id: "imu_link"
orientation: 
  x: -0.005794562865048647
  y: 0.01259857602417469
  z: -0.18334020674228668
  w: 0.9829474091529846
orientation_covariance: [0.0024999999441206455, 0.0, 0.0, 0.0, 0.0024999999441206455, 0.0, 0.0, 0.0, 0.0024999999441206455]
angular_velocity: 
  x: 0.0
  y: 0.0
  z: 0.0
angular_velocity_covariance: [0.019999999552965164, 0.0, 0.0, 0.0, 0.019999999552965164, 0.0, 0.0, 0.0, 0.019999999552965164]
linear_acceleration: 
  x: -0.19393032789230347
  y: -0.1364694982767105
  z: 9.789292335510254
linear_acceleration_covariance: [0.03999999910593033, 0.0, 0.0, 0.0, 0.03999999910593033, 0.0, 0.0, 0.0, 0.03999999910593033]
---
header: 
  seq: 23081
  stamp: 
    secs: 1669693852
    nsecs: 473405788
  frame_id: "imu_link"
orientation: 
  x: -0.005969190504401922
  y: 0.011922689154744148
  z: -0.18334755301475525
  w: 0.9829534292221069
orientation_covariance: [0.0024999999441206455, 0.0, 0.0, 0.0, 0.0024999999441206455, 0.0, 0.0, 0.0, 0.0024999999441206455]
angular_velocity: 
  x: 0.0
  y: 0.0
  z: 0.0
angular_velocity_covariance: [0.019999999552965164, 0.0, 0.0, 0.0, 0.019999999552965164, 0.0, 0.0, 0.0, 0.019999999552965164]
linear_acceleration: 
  x: -0.15921440720558167
  y: -0.16160860657691956
  z: 9.819818496704102
linear_acceleration_covariance: [0.03999999910593033, 0.0, 0.0, 0.0, 0.03999999910593033, 0.0, 0.0, 0.0, 0.03999999910593033]
---
header: 
  seq: 23082
  stamp: 
    secs: 1669693852
    nsecs: 478405788
  frame_id: "imu_link"
orientation: 
  x: -0.005969190504401922
  y: 0.011922689154744148
  z: -0.18334755301475525
  w: 0.9829534292221069
orientation_covariance: [0.0024999999441206455, 0.0, 0.0, 0.0, 0.0024999999441206455, 0.0, 0.0, 0.0, 0.0024999999441206455]
angular_velocity: 
  x: 0.0
  y: 0.0
  z: 0.0
angular_velocity_covariance: [0.019999999552965164, 0.0, 0.0, 0.0, 0.019999999552965164, 0.0, 0.0, 0.0, 0.019999999552965164]
linear_acceleration: 
  x: -0.15921440720558167
  y: -0.16160860657691956
  z: 9.819818496704102
linear_acceleration_covariance: [0.03999999910593033, 0.0, 0.0, 0.0, 0.03999999910593033, 0.0, 0.0, 0.0, 0.03999999910593033]
---
header: 
  seq: 23083
  stamp: 
    secs: 1669693852
    nsecs: 483405788
  frame_id: "imu_link"
orientation: 
  x: -0.0057261232286691666
  y: 0.011262614279985428
  z: -0.18335020542144775
  w: 0.9829620122909546
orientation_covariance: [0.0024999999441206455, 0.0, 0.0, 0.0, 0.0024999999441206455, 0.0, 0.0, 0.0, 0.0024999999441206455]
angular_velocity: 
  x: 0.0
  y: 0.0
  z: 0.0
angular_velocity_covariance: [0.019999999552965164, 0.0, 0.0, 0.0, 0.019999999552965164, 0.0, 0.0, 0.0, 0.019999999552965164]
linear_acceleration: 
  x: -0.12629413604736328
  y: -0.10893617570400238
  z: 9.77133560180664
linear_acceleration_covariance: [0.03999999910593033, 0.0, 0.0, 0.0, 0.03999999910593033, 0.0, 0.0, 0.0, 0.03999999910593033]
---
header: 
  seq: 23084
  stamp: 
    secs: 1669693852
    nsecs: 490405788
  frame_id: "imu_link"
orientation: 
  x: -0.0051187146455049515
  y: 0.01091287937015295
  z: -0.18334676325321198
  w: 0.9829699397087097
orientation_covariance: [0.0024999999441206455, 0.0, 0.0, 0.0, 0.0024999999441206455, 0.0, 0.0, 0.0, 0.0024999999441206455]
angular_velocity: 
  x: 0.0
  y: 0.0
  z: 0.0
angular_velocity_covariance: [0.019999999552965164, 0.0, 0.0, 0.0, 0.019999999552965164, 0.0, 0.0, 0.0, 0.019999999552965164]
linear_acceleration: 
  x: -0.18076223134994507
  y: -0.10714052617549896
  z: 9.77672290802002
linear_acceleration_covariance: [0.03999999910593033, 0.0, 0.0, 0.0, 0.03999999910593033, 0.0, 0.0, 0.0, 0.03999999910593033]
---
header: 
  seq: 23085
  stamp: 
    secs: 1669693852
    nsecs: 497405788
  frame_id: "imu_link"
orientation: 
  x: -0.004440678283572197
  y: 0.010748086497187614
  z: -0.18334126472473145
  w: 0.9829761385917664
orientation_covariance: [0.0024999999441206455, 0.0, 0.0, 0.0, 0.0024999999441206455, 0.0, 0.0, 0.0, 0.0024999999441206455]
angular_velocity: 
  x: 0.0
  y: 0.0
  z: 0.0
angular_velocity_covariance: [0.019999999552965164, 0.0, 0.0, 0.0, 0.019999999552965164, 0.0, 0.0, 0.0, 0.019999999552965164]
linear_acceleration: 
  x: -0.18914192914962769
  y: -0.07721300423145294
  z: 9.82759952545166
linear_acceleration_covariance: [0.03999999910593033, 0.0, 0.0, 0.0, 0.03999999910593033, 0.0, 0.0, 0.0, 0.03999999910593033]
---
header: 
  seq: 23086
  stamp: 
    secs: 1669693852
    nsecs: 504405788
  frame_id: "imu_link"
orientation: 
  x: -0.003931878134608269
  y: 0.01157678198069334
  z: -0.1833309680223465
  w: 0.9829708337783813
orientation_covariance: [0.0024999999441206455, 0.0, 0.0, 0.0, 0.0024999999441206455, 0.0, 0.0, 0.0, 0.0024999999441206455]
angular_velocity: 
  x: 0.0
  y: 0.0
  z: 0.0
angular_velocity_covariance: [0.019999999552965164, 0.0, 0.0, 0.0, 0.019999999552965164, 0.0, 0.0, 0.0, 0.019999999552965164]
linear_acceleration: 
  x: -0.21847090125083923
  y: -0.11552023142576218
  z: 9.888052940368652
linear_acceleration_covariance: [0.03999999910593033, 0.0, 0.0, 0.0, 0.03999999910593033, 0.0, 0.0, 0.0, 0.03999999910593033]
---
header: 
  seq: 23087
  stamp: 
    secs: 1669693852
    nsecs: 509405788
  frame_id: "imu_link"
orientation: 
  x: -0.003931878134608269
  y: 0.01157678198069334
  z: -0.1833309680223465
  w: 0.9829708337783813
orientation_covariance: [0.0024999999441206455, 0.0, 0.0, 0.0, 0.0024999999441206455, 0.0, 0.0, 0.0, 0.0024999999441206455]
angular_velocity: 
  x: 0.0
  y: 0.0
  z: 0.0
angular_velocity_covariance: [0.019999999552965164, 0.0, 0.0, 0.0, 0.019999999552965164, 0.0, 0.0, 0.0, 0.019999999552965164]
linear_acceleration: 
  x: -0.21847090125083923
  y: -0.11552023142576218
  z: 9.888052940368652
linear_acceleration_covariance: [0.03999999910593033, 0.0, 0.0, 0.0, 0.03999999910593033, 0.0, 0.0, 0.0, 0.03999999910593033]
---
header: 
  seq: 23088
  stamp: 
    secs: 1669693852
    nsecs: 553405788
  frame_id: "imu_link"
orientation: 
  x: -0.007047043647617102
  y: 0.008158685639500618
  z: -0.18338268995285034
  w: 0.982978105545044
orientation_covariance: [0.0024999999441206455, 0.0, 0.0, 0.0, 0.0024999999441206455, 0.0, 0.0, 0.0, 0.0024999999441206455]
angular_velocity: 
  x: 0.0
  y: 0.0
  z: 0.0
angular_velocity_covariance: [0.019999999552965164, 0.0, 0.0, 0.0, 0.019999999552965164, 0.0, 0.0, 0.0, 0.019999999552965164]
linear_acceleration: 
  x: -0.15682020783424377
  y: -0.15023615956306458
  z: 9.821613311767578
linear_acceleration_covariance: [0.03999999910593033, 0.0, 0.0, 0.0, 0.03999999910593033, 0.0, 0.0, 0.0, 0.03999999910593033]
---
header: 
  seq: 23089
  stamp: 
    secs: 1669693852
    nsecs: 555405788
  frame_id: "imu_link"
orientation: 
  x: -0.006574859842658043
  y: 0.008364930748939514
  z: -0.18337774276733398
  w: 0.982980489730835
orientation_covariance: [0.0024999999441206455, 0.0, 0.0, 0.0, 0.0024999999441206455, 0.0, 0.0, 0.0, 0.0024999999441206455]
angular_velocity: 
  x: 0.0
  y: 0.0
  z: 0.0
angular_velocity_covariance: [0.019999999552965164, 0.0, 0.0, 0.0, 0.019999999552965164, 0.0, 0.0, 0.0, 0.019999999552965164]
linear_acceleration: 
  x: -0.1538274586200714
  y: -0.132279634475708
  z: 9.785700798034668
linear_acceleration_covariance: [0.03999999910593033, 0.0, 0.0, 0.0, 0.03999999910593033, 0.0, 0.0, 0.0, 0.03999999910593033]
---
header: 
  seq: 23090
  stamp: 
    secs: 1669693852
    nsecs: 560405788
  frame_id: "imu_link"
orientation: 
  x: -0.006574859842658043
  y: 0.008364930748939514
  z: -0.18337774276733398
  w: 0.982980489730835
orientation_covariance: [0.0024999999441206455, 0.0, 0.0, 0.0, 0.0024999999441206455, 0.0, 0.0, 0.0, 0.0024999999441206455]
angular_velocity: 
  x: 0.0
  y: 0.0
  z: 0.0
angular_velocity_covariance: [0.019999999552965164, 0.0, 0.0, 0.0, 0.019999999552965164, 0.0, 0.0, 0.0, 0.019999999552965164]
linear_acceleration: 
  x: -0.1538274586200714
  y: -0.132279634475708
  z: 9.785700798034668
linear_acceleration_covariance: [0.03999999910593033, 0.0, 0.0, 0.0, 0.03999999910593033, 0.0, 0.0, 0.0, 0.03999999910593033]
---
header: 
  seq: 23091
  stamp: 
    secs: 1669693852
    nsecs: 565405788
  frame_id: "imu_link"
orientation: 
  x: -0.006190244574099779
  y: 0.0077780126594007015
  z: -0.18337972462177277
  w: 0.9829875826835632
orientation_covariance: [0.0024999999441206455, 0.0, 0.0, 0.0, 0.0024999999441206455, 0.0, 0.0, 0.0, 0.0024999999441206455]
angular_velocity: 
  x: 0.0
  y: 0.0
  z: 0.0
angular_velocity_covariance: [0.019999999552965164, 0.0, 0.0, 0.0, 0.019999999552965164, 0.0, 0.0, 0.0, 0.019999999552965164]
linear_acceleration: 
  x: -0.08080430328845978
  y: -0.10235211998224258
  z: 9.806650161743164
linear_acceleration_covariance: [0.03999999910593033, 0.0, 0.0, 0.0, 0.03999999910593033, 0.0, 0.0, 0.0, 0.03999999910593033]
---
header: 
  seq: 23092
  stamp: 
    secs: 1669693852
    nsecs: 572405788
  frame_id: "imu_link"
orientation: 
  x: -0.005758148618042469
  y: 0.008323323912918568
  z: -0.18337275087833405
  w: 0.9829869866371155
orientation_covariance: [0.0024999999441206455, 0.0, 0.0, 0.0, 0.0024999999441206455, 0.0, 0.0, 0.0, 0.0024999999441206455]
angular_velocity: 
  x: 0.0
  y: 0.0
  z: 0.0
angular_velocity_covariance: [0.019999999552965164, 0.0, 0.0, 0.0, 0.019999999552965164, 0.0, 0.0, 0.0, 0.019999999552965164]
linear_acceleration: 
  x: -0.19452887773513794
  y: -0.11133037507534027
  z: 9.771934509277344
linear_acceleration_covariance: [0.03999999910593033, 0.0, 0.0, 0.0, 0.03999999910593033, 0.0, 0.0, 0.0, 0.03999999910593033]
---
header: 
  seq: 23093
  stamp: 
    secs: 1669693852
    nsecs: 579405788
  frame_id: "imu_link"
orientation: 
  x: -0.00542056979611516
  y: 0.008933039382100105
  z: -0.18336592614650726
  w: 0.9829848408699036
orientation_covariance: [0.0024999999441206455, 0.0, 0.0, 0.0, 0.0024999999441206455, 0.0, 0.0, 0.0, 0.0024999999441206455]
angular_velocity: 
  x: 0.0
  y: 0.0
  z: 0.0
angular_velocity_covariance: [0.019999999552965164, 0.0, 0.0, 0.0, 0.019999999552965164, 0.0, 0.0, 0.0, 0.019999999552965164]
linear_acceleration: 
  x: -0.21428105235099792
  y: -0.11611878126859665
  z: 9.802459716796875
linear_acceleration_covariance: [0.03999999910593033, 0.0, 0.0, 0.0, 0.03999999910593033, 0.0, 0.0, 0.0, 0.03999999910593033]
---
header: 
  seq: 23094
  stamp: 
    secs: 1669693852
    nsecs: 589405788
  frame_id: "imu_link"
orientation: 
  x: -0.0055338116362690926
  y: 0.008783469907939434
  z: -0.18336783349514008
  w: 0.9829851984977722
orientation_covariance: [0.0024999999441206455, 0.0, 0.0, 0.0, 0.0024999999441206455, 0.0, 0.0, 0.0, 0.0024999999441206455]
angular_velocity: 
  x: 0.0
  y: 0.0
  z: 0.0
angular_velocity_covariance: [0.019999999552965164, 0.0, 0.0, 0.0, 0.019999999552965164, 0.0, 0.0, 0.0, 0.019999999552965164]
linear_acceleration: 
  x: -0.18315643072128296
  y: -0.1256955862045288
  z: 9.786299705505371
linear_acceleration_covariance: [0.03999999910593033, 0.0, 0.0, 0.0, 0.03999999910593033, 0.0, 0.0, 0.0, 0.03999999910593033]
---
header: 
  seq: 23095
  stamp: 
    secs: 1669693852
    nsecs: 596405788
  frame_id: "imu_link"
orientation: 
  x: -0.005179093685001135
  y: 0.009389633312821388
  z: -0.18336080014705658
  w: 0.9829828143119812
orientation_covariance: [0.0024999999441206455, 0.0, 0.0, 0.0, 0.0024999999441206455, 0.0, 0.0, 0.0, 0.0024999999441206455]
angular_velocity: 
  x: 0.0
  y: 0.0
  z: 0.0
angular_velocity_covariance: [0.019999999552965164, 0.0, 0.0, 0.0, 0.019999999552965164, 0.0, 0.0, 0.0, 0.019999999552965164]
linear_acceleration: 
  x: -0.181959331035614
  y: -0.12749123573303223
  z: 9.850343704223633
linear_acceleration_covariance: [0.03999999910593033, 0.0, 0.0, 0.0, 0.03999999910593033, 0.0, 0.0, 0.0, 0.03999999910593033]
---
header: 
  seq: 23096
  stamp: 
    secs: 1669693852
    nsecs: 603405788
  frame_id: "imu_link"
orientation: 
  x: -0.005373296327888966
  y: 0.008719414472579956
  z: -0.18336690962314606
  w: 0.9829867482185364
orientation_covariance: [0.0024999999441206455, 0.0, 0.0, 0.0, 0.0024999999441206455, 0.0, 0.0, 0.0, 0.0024999999441206455]
angular_velocity: 
  x: 0.0
  y: 0.0
  z: 0.0
angular_velocity_covariance: [0.019999999552965164, 0.0, 0.0, 0.0, 0.019999999552965164, 0.0, 0.0, 0.0, 0.019999999552965164]
linear_acceleration: 
  x: -0.13407529890537262
  y: -0.1364694982767105
  z: 9.809642791748047
linear_acceleration_covariance: [0.03999999910593033, 0.0, 0.0, 0.0, 0.03999999910593033, 0.0, 0.0, 0.0, 0.03999999910593033]
---
header: 
  seq: 23097
  stamp: 
    secs: 1669693852
    nsecs: 609405788
  frame_id: "imu_link"
orientation: 
  x: -0.004734565503895283
  y: 0.009000041522085667
  z: -0.18336009979248047
  w: 0.9829888343811035
orientation_covariance: [0.0024999999441206455, 0.0, 0.0, 0.0, 0.0024999999441206455, 0.0, 0.0, 0.0, 0.0024999999441206455]
angular_velocity: 
  x: 0.0
  y: 0.0
  z: 0.0
angular_velocity_covariance: [0.019999999552965164, 0.0, 0.0, 0.0, 0.019999999552965164, 0.0, 0.0, 0.0, 0.019999999552965164]
linear_acceleration: 
  x: -0.20350714027881622
  y: -0.05626373738050461
  z: 9.848548889160156
linear_acceleration_covariance: [0.03999999910593033, 0.0, 0.0, 0.0, 0.03999999910593033, 0.0, 0.0, 0.0, 0.03999999910593033]
---
header: 
  seq: 23098
  stamp: 
    secs: 1669693852
    nsecs: 614405788
  frame_id: "imu_link"
orientation: 
  x: -0.004734565503895283
  y: 0.009000041522085667
  z: -0.18336009979248047
  w: 0.9829888343811035
orientation_covariance: [0.0024999999441206455, 0.0, 0.0, 0.0, 0.0024999999441206455, 0.0, 0.0, 0.0, 0.0024999999441206455]
angular_velocity: 
  x: 0.0
  y: 0.0
  z: 0.0
angular_velocity_covariance: [0.019999999552965164, 0.0, 0.0, 0.0, 0.019999999552965164, 0.0, 0.0, 0.0, 0.019999999552965164]
linear_acceleration: 
  x: -0.20350714027881622
  y: -0.05626373738050461
  z: 9.848548889160156
linear_acceleration_covariance: [0.03999999910593033, 0.0, 0.0, 0.0, 0.03999999910593033, 0.0, 0.0, 0.0, 0.03999999910593033]
---
header: 
  seq: 23099
  stamp: 
    secs: 1669693852
    nsecs: 622405788
  frame_id: "imu_link"
orientation: 
  x: -0.004829333629459143
  y: 0.01013233046978712
  z: -0.18335384130477905
  w: 0.9829785227775574
orientation_covariance: [0.0024999999441206455, 0.0, 0.0, 0.0, 0.0024999999441206455, 0.0, 0.0, 0.0, 0.0024999999441206455]
angular_velocity: 
  x: 0.0
  y: 0.0
  z: 0.0
angular_velocity_covariance: [0.019999999552965164, 0.0, 0.0, 0.0, 0.019999999552965164, 0.0, 0.0, 0.0, 0.019999999552965164]
linear_acceleration: 
  x: -0.2106897532939911
  y: -0.1562216579914093
  z: 9.804255485534668
linear_acceleration_covariance: [0.03999999910593033, 0.0, 0.0, 0.0, 0.03999999910593033, 0.0, 0.0, 0.0, 0.03999999910593033]
---
header: 
  seq: 23100
  stamp: 
    secs: 1669693852
    nsecs: 666405788
  frame_id: "imu_link"
orientation: 
  x: -0.0014400596264749765
  y: 0.012566423043608665
  z: -0.18330539762973785
  w: 0.9829702377319336
orientation_covariance: [0.0024999999441206455, 0.0, 0.0, 0.0, 0.0024999999441206455, 0.0, 0.0, 0.0, 0.0024999999441206455]
angular_velocity: 
  x: 0.0
  y: 0.0
  z: 0.0
angular_velocity_covariance: [0.019999999552965164, 0.0, 0.0, 0.0, 0.019999999552965164, 0.0, 0.0, 0.0, 0.019999999552965164]
linear_acceleration: 
  x: -0.19213467836380005
  y: -0.1173158809542656
  z: 9.84735107421875
linear_acceleration_covariance: [0.03999999910593033, 0.0, 0.0, 0.0, 0.03999999910593033, 0.0, 0.0, 0.0, 0.03999999910593033]
---
header: 
  seq: 23101
  stamp: 
    secs: 1669693852
    nsecs: 668405788
  frame_id: "imu_link"
orientation: 
  x: -0.0015987720107659698
  y: 0.012079189531505108
  z: -0.18330907821655273
  w: 0.9829753637313843
orientation_covariance: [0.0024999999441206455, 0.0, 0.0, 0.0, 0.0024999999441206455, 0.0, 0.0, 0.0, 0.0024999999441206455]
angular_velocity: 
  x: 0.0
  y: 0.0
  z: 0.0
angular_velocity_covariance: [0.019999999552965164, 0.0, 0.0, 0.0, 0.019999999552965164, 0.0, 0.0, 0.0, 0.019999999552965164]
linear_acceleration: 
  x: -0.14903905987739563
  y: -0.08559270948171616
  z: 9.907206535339355
linear_acceleration_covariance: [0.03999999910593033, 0.0, 0.0, 0.0, 0.03999999910593033, 0.0, 0.0, 0.0, 0.03999999910593033]
---
header: 
  seq: 23102
  stamp: 
    secs: 1669693852
    nsecs: 673405788
  frame_id: "imu_link"
orientation: 
  x: -0.0015987720107659698
  y: 0.012079189531505108
  z: -0.18330907821655273
  w: 0.9829753637313843
orientation_covariance: [0.0024999999441206455, 0.0, 0.0, 0.0, 0.0024999999441206455, 0.0, 0.0, 0.0, 0.0024999999441206455]
angular_velocity: 
  x: 0.0
  y: 0.0
  z: 0.0
angular_velocity_covariance: [0.019999999552965164, 0.0, 0.0, 0.0, 0.019999999552965164, 0.0, 0.0, 0.0, 0.019999999552965164]
linear_acceleration: 
  x: -0.14903905987739563
  y: -0.08559270948171616
  z: 9.907206535339355
linear_acceleration_covariance: [0.03999999910593033, 0.0, 0.0, 0.0, 0.03999999910593033, 0.0, 0.0, 0.0, 0.03999999910593033]
---
header: 
  seq: 23103
  stamp: 
    secs: 1669693852
    nsecs: 678405788
  frame_id: "imu_link"
orientation: 
  x: -0.00218927557580173
  y: 0.011701579205691814
  z: -0.18331731855869293
  w: 0.9829773306846619
orientation_covariance: [0.0024999999441206455, 0.0, 0.0, 0.0, 0.0024999999441206455, 0.0, 0.0, 0.0, 0.0024999999441206455]
angular_velocity: 
  x: 0.0
  y: 0.0
  z: 0.0
angular_velocity_covariance: [0.019999999552965164, 0.0, 0.0, 0.0, 0.019999999552965164, 0.0, 0.0, 0.0, 0.019999999552965164]
linear_acceleration: 
  x: -0.19033902883529663
  y: -0.11372458189725876
  z: 9.81143856048584
linear_acceleration_covariance: [0.03999999910593033, 0.0, 0.0, 0.0, 0.03999999910593033, 0.0, 0.0, 0.0, 0.03999999910593033]
---
header: 
  seq: 23104
  stamp: 
    secs: 1669693852
    nsecs: 683405788
  frame_id: "imu_link"
orientation: 
  x: -0.0023439268115907907
  y: 0.011014165356755257
  z: -0.18332193791866302
  w: 0.9829840660095215
orientation_covariance: [0.0024999999441206455, 0.0, 0.0, 0.0, 0.0024999999441206455, 0.0, 0.0, 0.0, 0.0024999999441206455]
angular_velocity: 
  x: 0.0
  y: 0.0
  z: 0.0
angular_velocity_covariance: [0.019999999552965164, 0.0, 0.0, 0.0, 0.019999999552965164, 0.0, 0.0, 0.0, 0.019999999552965164]
linear_acceleration: 
  x: -0.1346738487482071
  y: -0.08738835901021957
  z: 9.809043884277344
linear_acceleration_covariance: [0.03999999910593033, 0.0, 0.0, 0.0, 0.03999999910593033, 0.0, 0.0, 0.0, 0.03999999910593033]
---
header: 
  seq: 23105
  stamp: 
    secs: 1669693852
    nsecs: 689405788
  frame_id: "imu_link"
orientation: 
  x: -0.0028979196213185787
  y: 0.010594455525279045
  z: -0.1833294779062271
  w: 0.98298579454422
orientation_covariance: [0.0024999999441206455, 0.0, 0.0, 0.0, 0.0024999999441206455, 0.0, 0.0, 0.0, 0.0024999999441206455]
angular_velocity: 
  x: 0.0
  y: 0.0
  z: 0.0
angular_velocity_covariance: [0.019999999552965164, 0.0, 0.0, 0.0, 0.019999999552965164, 0.0, 0.0, 0.0, 0.019999999552965164]
linear_acceleration: 
  x: -0.1759738177061081
  y: -0.11133037507534027
  z: 9.84495735168457
linear_acceleration_covariance: [0.03999999910593033, 0.0, 0.0, 0.0, 0.03999999910593033, 0.0, 0.0, 0.0, 0.03999999910593033]
---
header: 
  seq: 23106
  stamp: 
    secs: 1669693852
    nsecs: 694405788
  frame_id: "imu_link"
orientation: 
  x: -0.0028979196213185787
  y: 0.010594455525279045
  z: -0.1833294779062271
  w: 0.98298579454422
orientation_covariance: [0.0024999999441206455, 0.0, 0.0, 0.0, 0.0024999999441206455, 0.0, 0.0, 0.0, 0.0024999999441206455]
angular_velocity: 
  x: 0.0
  y: 0.0
  z: 0.0
angular_velocity_covariance: [0.019999999552965164, 0.0, 0.0, 0.0, 0.019999999552965164, 0.0, 0.0, 0.0, 0.019999999552965164]
linear_acceleration: 
  x: -0.1759738177061081
  y: -0.11133037507534027
  z: 9.84495735168457
linear_acceleration_covariance: [0.03999999910593033, 0.0, 0.0, 0.0, 0.03999999910593033, 0.0, 0.0, 0.0, 0.03999999910593033]
---
header: 
  seq: 23107
  stamp: 
    secs: 1669693852
    nsecs: 702405788
  frame_id: "imu_link"
orientation: 
  x: -0.00409059738740325
  y: 0.01059215422719717
  z: -0.18334101140499115
  w: 0.982979416847229
orientation_covariance: [0.0024999999441206455, 0.0, 0.0, 0.0, 0.0024999999441206455, 0.0, 0.0, 0.0, 0.0024999999441206455]
angular_velocity: 
  x: 0.0
  y: 0.0
  z: 0.0
angular_velocity_covariance: [0.019999999552965164, 0.0, 0.0, 0.0, 0.019999999552965164, 0.0, 0.0, 0.0, 0.019999999552965164]
linear_acceleration: 
  x: -0.19033902883529663
  y: -0.1628057062625885
  z: 9.788094520568848
linear_acceleration_covariance: [0.03999999910593033, 0.0, 0.0, 0.0, 0.03999999910593033, 0.0, 0.0, 0.0, 0.03999999910593033]
---
header: 
  seq: 23108
  stamp: 
    secs: 1669693852
    nsecs: 709405788
  frame_id: "imu_link"
orientation: 
  x: -0.004536022432148457
  y: 0.01004838477820158
  z: -0.18334852159023285
  w: 0.98298180103302
orientation_covariance: [0.0024999999441206455, 0.0, 0.0, 0.0, 0.0024999999441206455, 0.0, 0.0, 0.0, 0.0024999999441206455]
angular_velocity: 
  x: 0.0
  y: 0.0
  z: 0.0
angular_velocity_covariance: [0.019999999552965164, 0.0, 0.0, 0.0, 0.019999999552965164, 0.0, 0.0, 0.0, 0.019999999552965164]
linear_acceleration: 
  x: -0.17717091739177704
  y: -0.12509703636169434
  z: 9.865307807922363
linear_acceleration_covariance: [0.03999999910593033, 0.0, 0.0, 0.0, 0.03999999910593033, 0.0, 0.0, 0.0, 0.03999999910593033]
---
header: 
  seq: 23109
  stamp: 
    secs: 1669693852
    nsecs: 744405788
  frame_id: "imu_link"
orientation: 
  x: -0.007100321352481842
  y: 0.008017979562282562
  z: -0.1833835393190384
  w: 0.9829787611961365
orientation_covariance: [0.0024999999441206455, 0.0, 0.0, 0.0, 0.0024999999441206455, 0.0, 0.0, 0.0, 0.0024999999441206455]
angular_velocity: 
  x: 0.0
  y: 0.0
  z: 0.0
angular_velocity_covariance: [0.019999999552965164, 0.0, 0.0, 0.0, 0.019999999552965164, 0.0, 0.0, 0.0, 0.019999999552965164]
linear_acceleration: 
  x: -0.14724339544773102
  y: -0.14903905987739563
  z: 9.774927139282227
linear_acceleration_covariance: [0.03999999910593033, 0.0, 0.0, 0.0, 0.03999999910593033, 0.0, 0.0, 0.0, 0.03999999910593033]
---
header: 
  seq: 23110
  stamp: 
    secs: 1669693852
    nsecs: 746405788
  frame_id: "imu_link"
orientation: 
  x: -0.006949928589165211
  y: 0.008506592363119125
  z: -0.1833783984184265
  w: 0.9829766750335693
orientation_covariance: [0.0024999999441206455, 0.0, 0.0, 0.0, 0.0024999999441206455, 0.0, 0.0, 0.0, 0.0024999999441206455]
angular_velocity: 
  x: 0.0
  y: 0.0
  z: 0.0
angular_velocity_covariance: [0.019999999552965164, 0.0, 0.0, 0.0, 0.019999999552965164, 0.0, 0.0, 0.0, 0.019999999552965164]
linear_acceleration: 
  x: -0.193331778049469
  y: -0.1586158573627472
  z: 9.818022727966309
linear_acceleration_covariance: [0.03999999910593033, 0.0, 0.0, 0.0, 0.03999999910593033, 0.0, 0.0, 0.0, 0.03999999910593033]
---
header: 
  seq: 23111
  stamp: 
    secs: 1669693852
    nsecs: 751405788
  frame_id: "imu_link"
orientation: 
  x: -0.006949928589165211
  y: 0.008506592363119125
  z: -0.1833783984184265
  w: 0.9829766750335693
orientation_covariance: [0.0024999999441206455, 0.0, 0.0, 0.0, 0.0024999999441206455, 0.0, 0.0, 0.0, 0.0024999999441206455]
angular_velocity: 
  x: 0.0
  y: 0.0
  z: 0.0
angular_velocity_covariance: [0.019999999552965164, 0.0, 0.0, 0.0, 0.019999999552965164, 0.0, 0.0, 0.0, 0.019999999552965164]
linear_acceleration: 
  x: -0.193331778049469
  y: -0.1586158573627472
  z: 9.818022727966309
linear_acceleration_covariance: [0.03999999910593033, 0.0, 0.0, 0.0, 0.03999999910593033, 0.0, 0.0, 0.0, 0.03999999910593033]
---
header: 
  seq: 23112
  stamp: 
    secs: 1669693852
    nsecs: 756405788
  frame_id: "imu_link"
orientation: 
  x: -0.0064600142650306225
  y: 0.009009446017444134
  z: -0.1833706498146057
  w: 0.9829769730567932
orientation_covariance: [0.0024999999441206455, 0.0, 0.0, 0.0, 0.0024999999441206455, 0.0, 0.0, 0.0, 0.0024999999441206455]
angular_velocity: 
  x: 0.0
  y: 0.0
  z: 0.0
angular_velocity_covariance: [0.019999999552965164, 0.0, 0.0, 0.0, 0.019999999552965164, 0.0, 0.0, 0.0, 0.019999999552965164]
linear_acceleration: 
  x: -0.1951274424791336
  y: -0.1280897855758667
  z: 9.838972091674805
linear_acceleration_covariance: [0.03999999910593033, 0.0, 0.0, 0.0, 0.03999999910593033, 0.0, 0.0, 0.0, 0.03999999910593033]
---
header: 
  seq: 23113
  stamp: 
    secs: 1669693852
    nsecs: 763405788
  frame_id: "imu_link"
orientation: 
  x: -0.0057834177277982235
  y: 0.00917989481240511
  z: -0.18336404860019684
  w: 0.9829808473587036
orientation_covariance: [0.0024999999441206455, 0.0, 0.0, 0.0, 0.0024999999441206455, 0.0, 0.0, 0.0, 0.0024999999441206455]
angular_velocity: 
  x: 0.0
  y: 0.0
  z: 0.0
angular_velocity_covariance: [0.019999999552965164, 0.0, 0.0, 0.0, 0.019999999552965164, 0.0, 0.0, 0.0, 0.019999999552965164]
linear_acceleration: 
  x: -0.19153612852096558
  y: -0.06703764945268631
  z: 9.791686058044434
linear_acceleration_covariance: [0.03999999910593033, 0.0, 0.0, 0.0, 0.03999999910593033, 0.0, 0.0, 0.0, 0.03999999910593033]
---
header: 
  seq: 23114
  stamp: 
    secs: 1669693852
    nsecs: 770405788
  frame_id: "imu_link"
orientation: 
  x: -0.0053122807294130325
  y: 0.0096949627622962
  z: -0.18335643410682678
  w: 0.9829798936843872
orientation_covariance: [0.0024999999441206455, 0.0, 0.0, 0.0, 0.0024999999441206455, 0.0, 0.0, 0.0, 0.0024999999441206455]
angular_velocity: 
  x: 0.0
  y: 0.0
  z: 0.0
angular_velocity_covariance: [0.019999999552965164, 0.0, 0.0, 0.0, 0.019999999552965164, 0.0, 0.0, 0.0, 0.019999999552965164]
linear_acceleration: 
  x: -0.1711854189634323
  y: -0.13527239859104156
  z: 9.807847023010254
linear_acceleration_covariance: [0.03999999910593033, 0.0, 0.0, 0.0, 0.03999999910593033, 0.0, 0.0, 0.0, 0.03999999910593033]
---
header: 
  seq: 23115
  stamp: 
    secs: 1669693852
    nsecs: 780405788
  frame_id: "imu_link"
orientation: 
  x: -0.005949422251433134
  y: 0.009268655441701412
  z: -0.18336516618728638
  w: 0.9829788208007812
orientation_covariance: [0.0024999999441206455, 0.0, 0.0, 0.0, 0.0024999999441206455, 0.0, 0.0, 0.0, 0.0024999999441206455]
angular_velocity: 
  x: 0.0
  y: 0.0
  z: 0.0
angular_velocity_covariance: [0.019999999552965164, 0.0, 0.0, 0.0, 0.019999999552965164, 0.0, 0.0, 0.0, 0.019999999552965164]
linear_acceleration: 
  x: -0.14724339544773102
  y: -0.1454477459192276
  z: 9.853935241699219
linear_acceleration_covariance: [0.03999999910593033, 0.0, 0.0, 0.0, 0.03999999910593033, 0.0, 0.0, 0.0, 0.03999999910593033]
---
header: 
  seq: 23116
  stamp: 
    secs: 1669693852
    nsecs: 787405788
  frame_id: "imu_link"
orientation: 
  x: -0.005247785709798336
  y: 0.009228119626641273
  z: -0.1833598017692566
  w: 0.9829841256141663
orientation_covariance: [0.0024999999441206455, 0.0, 0.0, 0.0, 0.0024999999441206455, 0.0, 0.0, 0.0, 0.0024999999441206455]
angular_velocity: 
  x: 0.0
  y: 0.0
  z: 0.0
angular_velocity_covariance: [0.019999999552965164, 0.0, 0.0, 0.0, 0.019999999552965164, 0.0, 0.0, 0.0, 0.019999999552965164]
linear_acceleration: 
  x: -0.15801730751991272
  y: -0.1364694982767105
  z: 9.762357711791992
linear_acceleration_covariance: [0.03999999910593033, 0.0, 0.0, 0.0, 0.03999999910593033, 0.0, 0.0, 0.0, 0.03999999910593033]
---
header: 
  seq: 23117
  stamp: 
    secs: 1669693852
    nsecs: 794405788
  frame_id: "imu_link"
orientation: 
  x: -0.004551816266030073
  y: 0.009183178655803204
  z: -0.1833544373512268
  w: 0.9829891324043274
orientation_covariance: [0.0024999999441206455, 0.0, 0.0, 0.0, 0.0024999999441206455, 0.0, 0.0, 0.0, 0.0024999999441206455]
angular_velocity: 
  x: 0.0
  y: 0.0
  z: 0.0
angular_velocity_covariance: [0.019999999552965164, 0.0, 0.0, 0.0, 0.019999999552965164, 0.0, 0.0, 0.0, 0.019999999552965164]
linear_acceleration: 
  x: -0.1628057062625885
  y: -0.10893617570400238
  z: 9.84376049041748
linear_acceleration_covariance: [0.03999999910593033, 0.0, 0.0, 0.0, 0.03999999910593033, 0.0, 0.0, 0.0, 0.03999999910593033]
---
header: 
  seq: 23118
  stamp: 
    secs: 1669693852
    nsecs: 800405788
  frame_id: "imu_link"
orientation: 
  x: -0.004905624780803919
  y: 0.008584833703935146
  z: -0.1833609640598297
  w: 0.982991635799408
orientation_covariance: [0.0024999999441206455, 0.0, 0.0, 0.0, 0.0024999999441206455, 0.0, 0.0, 0.0, 0.0024999999441206455]
angular_velocity: 
  x: 0.0
  y: 0.0
  z: 0.0
angular_velocity_covariance: [0.019999999552965164, 0.0, 0.0, 0.0, 0.019999999552965164, 0.0, 0.0, 0.0, 0.019999999552965164]
linear_acceleration: 
  x: -0.1478419452905655
  y: -0.12389993667602539
  z: 9.719261169433594
linear_acceleration_covariance: [0.03999999910593033, 0.0, 0.0, 0.0, 0.03999999910593033, 0.0, 0.0, 0.0, 0.03999999910593033]
---
header: 
  seq: 23119
  stamp: 
    secs: 1669693852
    nsecs: 805405788
  frame_id: "imu_link"
orientation: 
  x: -0.004905624780803919
  y: 0.008584833703935146
  z: -0.1833609640598297
  w: 0.982991635799408
orientation_covariance: [0.0024999999441206455, 0.0, 0.0, 0.0, 0.0024999999441206455, 0.0, 0.0, 0.0, 0.0024999999441206455]
angular_velocity: 
  x: 0.0
  y: 0.0
  z: 0.0
angular_velocity_covariance: [0.019999999552965164, 0.0, 0.0, 0.0, 0.019999999552965164, 0.0, 0.0, 0.0, 0.019999999552965164]
linear_acceleration: 
  x: -0.1478419452905655
  y: -0.12389993667602539
  z: 9.719261169433594
linear_acceleration_covariance: [0.03999999910593033, 0.0, 0.0, 0.0, 0.03999999910593033, 0.0, 0.0, 0.0, 0.03999999910593033]
---
header: 
  seq: 23120
  stamp: 
    secs: 1669693852
    nsecs: 813405788
  frame_id: "imu_link"
orientation: 
  x: -0.005008200649172068
  y: 0.008931987918913364
  z: -0.18335968255996704
  w: 0.9829882383346558
orientation_covariance: [0.0024999999441206455, 0.0, 0.0, 0.0, 0.0024999999441206455, 0.0, 0.0, 0.0, 0.0024999999441206455]
angular_velocity: 
  x: 0.0
  y: 0.0
  z: 0.0
angular_velocity_covariance: [0.019999999552965164, 0.0, 0.0, 0.0, 0.019999999552965164, 0.0, 0.0, 0.0, 0.019999999552965164]
linear_acceleration: 
  x: -0.12629413604736328
  y: -0.15741875767707825
  z: 9.743802070617676
linear_acceleration_covariance: [0.03999999910593033, 0.0, 0.0, 0.0, 0.03999999910593033, 0.0, 0.0, 0.0, 0.03999999910593033]
---
header: 
  seq: 23121
  stamp: 
    secs: 1669693852
    nsecs: 820405788
  frame_id: "imu_link"
orientation: 
  x: -0.005104009062051773
  y: 0.009625623933970928
  z: -0.18335583806037903
  w: 0.9829819202423096
orientation_covariance: [0.0024999999441206455, 0.0, 0.0, 0.0, 0.0024999999441206455, 0.0, 0.0, 0.0, 0.0024999999441206455]
angular_velocity: 
  x: 0.0
  y: 0.0
  z: 0.0
angular_velocity_covariance: [0.019999999552965164, 0.0, 0.0, 0.0, 0.019999999552965164, 0.0, 0.0, 0.0, 0.019999999552965164]
linear_acceleration: 
  x: -0.2017114907503128
  y: -0.14484919607639313
  z: 9.846753120422363
linear_acceleration_covariance: [0.03999999910593033, 0.0, 0.0, 0.0, 0.03999999910593033, 0.0, 0.0, 0.0, 0.03999999910593033]
---
header: 
  seq: 23122
  stamp: 
    secs: 1669693852
    nsecs: 855405788
  frame_id: "imu_link"
orientation: 
  x: -0.008133457973599434
  y: 0.0108658941462636
  z: -0.18337224423885345
  w: 0.982945442199707
orientation_covariance: [0.0024999999441206455, 0.0, 0.0, 0.0, 0.0024999999441206455, 0.0, 0.0, 0.0, 0.0024999999441206455]
angular_velocity: 
  x: 0.0
  y: 0.0
  z: 0.0
angular_velocity_covariance: [0.019999999552965164, 0.0, 0.0, 0.0, 0.019999999552965164, 0.0, 0.0, 0.0, 0.019999999552965164]
linear_acceleration: 
  x: -0.17178396880626678
  y: -0.15322890877723694
  z: 9.830592155456543
linear_acceleration_covariance: [0.03999999910593033, 0.0, 0.0, 0.0, 0.03999999910593033, 0.0, 0.0, 0.0, 0.03999999910593033]
---
header: 
  seq: 23123
  stamp: 
    secs: 1669693852
    nsecs: 858405788
  frame_id: "imu_link"
orientation: 
  x: -0.00754031166434288
  y: 0.01079187449067831
  z: -0.18336749076843262
  w: 0.9829518795013428
orientation_covariance: [0.0024999999441206455, 0.0, 0.0, 0.0, 0.0024999999441206455, 0.0, 0.0, 0.0, 0.0024999999441206455]
angular_velocity: 
  x: 0.0
  y: 0.0
  z: 0.0
angular_velocity_covariance: [0.019999999552965164, 0.0, 0.0, 0.0, 0.019999999552965164, 0.0, 0.0, 0.0, 0.019999999552965164]
linear_acceleration: 
  x: -0.18614917993545532
  y: -0.11192892491817474
  z: 9.84735107421875
linear_acceleration_covariance: [0.03999999910593033, 0.0, 0.0, 0.0, 0.03999999910593033, 0.0, 0.0, 0.0, 0.03999999910593033]
---
header: 
  seq: 23124
  stamp: 
    secs: 1669693852
    nsecs: 863405788
  frame_id: "imu_link"
orientation: 
  x: -0.00754031166434288
  y: 0.01079187449067831
  z: -0.18336749076843262
  w: 0.9829518795013428
orientation_covariance: [0.0024999999441206455, 0.0, 0.0, 0.0, 0.0024999999441206455, 0.0, 0.0, 0.0, 0.0024999999441206455]
angular_velocity: 
  x: 0.0
  y: 0.0
  z: 0.0
angular_velocity_covariance: [0.019999999552965164, 0.0, 0.0, 0.0, 0.019999999552965164, 0.0, 0.0, 0.0, 0.019999999552965164]
linear_acceleration: 
  x: -0.18614917993545532
  y: -0.11192892491817474
  z: 9.84735107421875
linear_acceleration_covariance: [0.03999999910593033, 0.0, 0.0, 0.0, 0.03999999910593033, 0.0, 0.0, 0.0, 0.03999999910593033]
---
header: 
  seq: 23125
  stamp: 
    secs: 1669693852
    nsecs: 868405788
  frame_id: "imu_link"
orientation: 
  x: -0.006991952657699585
  y: 0.010346835479140282
  z: -0.1833665668964386
  w: 0.9829608798027039
orientation_covariance: [0.0024999999441206455, 0.0, 0.0, 0.0, 0.0024999999441206455, 0.0, 0.0, 0.0, 0.0024999999441206455]
angular_velocity: 
  x: 0.0
  y: 0.0
  z: 0.0
angular_velocity_covariance: [0.019999999552965164, 0.0, 0.0, 0.0, 0.019999999552965164, 0.0, 0.0, 0.0, 0.019999999552965164]
linear_acceleration: 
  x: -0.13946224749088287
  y: -0.10654197633266449
  z: 9.885658264160156
linear_acceleration_covariance: [0.03999999910593033, 0.0, 0.0, 0.0, 0.03999999910593033, 0.0, 0.0, 0.0, 0.03999999910593033]
---
header: 
  seq: 23126
  stamp: 
    secs: 1669693852
    nsecs: 875405788
  frame_id: "imu_link"
orientation: 
  x: -0.006412880960851908
  y: 0.010740199126303196
  z: -0.18335792422294617
  w: 0.9829622507095337
orientation_covariance: [0.0024999999441206455, 0.0, 0.0, 0.0, 0.0024999999441206455, 0.0, 0.0, 0.0, 0.0024999999441206455]
angular_velocity: 
  x: 0.0
  y: 0.0
  z: 0.0
angular_velocity_covariance: [0.019999999552965164, 0.0, 0.0, 0.0, 0.019999999552965164, 0.0, 0.0, 0.0, 0.019999999552965164]
linear_acceleration: 
  x: -0.21009118854999542
  y: -0.13766659796237946
  z: 9.852139472961426
linear_acceleration_covariance: [0.03999999910593033, 0.0, 0.0, 0.0, 0.03999999910593033, 0.0, 0.0, 0.0, 0.03999999910593033]
---
header: 
  seq: 23127
  stamp: 
    secs: 1669693852
    nsecs: 882405788
  frame_id: "imu_link"
orientation: 
  x: -0.00627606175839901
  y: 0.010053939186036587
  z: -0.18336226046085358
  w: 0.9829695224761963
orientation_covariance: [0.0024999999441206455, 0.0, 0.0, 0.0, 0.0024999999441206455, 0.0, 0.0, 0.0, 0.0024999999441206455]
angular_velocity: 
  x: 0.0
  y: 0.0
  z: 0.0
angular_velocity_covariance: [0.019999999552965164, 0.0, 0.0, 0.0, 0.019999999552965164, 0.0, 0.0, 0.0, 0.019999999552965164]
linear_acceleration: 
  x: -0.11851298063993454
  y: -0.1364694982767105
  z: 9.855133056640625
linear_acceleration_covariance: [0.03999999910593033, 0.0, 0.0, 0.0, 0.03999999910593033, 0.0, 0.0, 0.0, 0.03999999910593033]
---
header: 
  seq: 23128
  stamp: 
    secs: 1669693852
    nsecs: 891405788
  frame_id: "imu_link"
orientation: 
  x: -0.0058638593181967735
  y: 0.009537389501929283
  z: -0.1833624392747879
  w: 0.9829772114753723
orientation_covariance: [0.0024999999441206455, 0.0, 0.0, 0.0, 0.0024999999441206455, 0.0, 0.0, 0.0, 0.0024999999441206455]
angular_velocity: 
  x: 0.0
  y: 0.0
  z: 0.0
angular_velocity_covariance: [0.019999999552965164, 0.0, 0.0, 0.0, 0.019999999552965164, 0.0, 0.0, 0.0, 0.019999999552965164]
linear_acceleration: 
  x: -0.13108253479003906
  y: -0.16101005673408508
  z: 9.806650161743164
linear_acceleration_covariance: [0.03999999910593033, 0.0, 0.0, 0.0, 0.03999999910593033, 0.0, 0.0, 0.0, 0.03999999910593033]
---
header: 
  seq: 23129
  stamp: 
    secs: 1669693852
    nsecs: 896405788
  frame_id: "imu_link"
orientation: 
  x: -0.0058638593181967735
  y: 0.009537389501929283
  z: -0.1833624392747879
  w: 0.9829772114753723
orientation_covariance: [0.0024999999441206455, 0.0, 0.0, 0.0, 0.0024999999441206455, 0.0, 0.0, 0.0, 0.0024999999441206455]
angular_velocity: 
  x: 0.0
  y: 0.0
  z: 0.0
angular_velocity_covariance: [0.019999999552965164, 0.0, 0.0, 0.0, 0.019999999552965164, 0.0, 0.0, 0.0, 0.019999999552965164]
linear_acceleration: 
  x: -0.13108253479003906
  y: -0.16101005673408508
  z: 9.806650161743164
linear_acceleration_covariance: [0.03999999910593033, 0.0, 0.0, 0.0, 0.03999999910593033, 0.0, 0.0, 0.0, 0.03999999910593033]
---
header: 
  seq: 23130
  stamp: 
    secs: 1669693852
    nsecs: 901405788
  frame_id: "imu_link"
orientation: 
  x: -0.005793929565697908
  y: 0.010237136855721474
  z: -0.18335653841495514
  w: 0.9829716682434082
orientation_covariance: [0.0024999999441206455, 0.0, 0.0, 0.0, 0.0024999999441206455, 0.0, 0.0, 0.0, 0.0024999999441206455]
angular_velocity: 
  x: 0.0
  y: 0.0
  z: 0.0
angular_velocity_covariance: [0.019999999552965164, 0.0, 0.0, 0.0, 0.019999999552965164, 0.0, 0.0, 0.0, 0.019999999552965164]
linear_acceleration: 
  x: -0.19033902883529663
  y: -0.15023615956306458
  z: 9.84376049041748
linear_acceleration_covariance: [0.03999999910593033, 0.0, 0.0, 0.0, 0.03999999910593033, 0.0, 0.0, 0.0, 0.03999999910593033]
---
header: 
  seq: 23131
  stamp: 
    secs: 1669693852
    nsecs: 934405788
  frame_id: "imu_link"
orientation: 
  x: -0.006808847188949585
  y: 0.007116379681974649
  z: -0.18338832259178162
  w: 0.9829868078231812
orientation_covariance: [0.0024999999441206455, 0.0, 0.0, 0.0, 0.0024999999441206455, 0.0, 0.0, 0.0, 0.0024999999441206455]
angular_velocity: 
  x: 0.0
  y: 0.0
  z: 0.0
angular_velocity_covariance: [0.019999999552965164, 0.0, 0.0, 0.0, 0.019999999552965164, 0.0, 0.0, 0.0, 0.019999999552965164]
linear_acceleration: 
  x: -0.07781155407428741
  y: -0.16101005673408508
  z: 9.780912399291992
linear_acceleration_covariance: [0.03999999910593033, 0.0, 0.0, 0.0, 0.03999999910593033, 0.0, 0.0, 0.0, 0.03999999910593033]
---
header: 
  seq: 23132
  stamp: 
    secs: 1669693852
    nsecs: 936405788
  frame_id: "imu_link"
orientation: 
  x: -0.006323018576949835
  y: 0.007277215365320444
  z: -0.1833842396736145
  w: 0.9829897284507751
orientation_covariance: [0.0024999999441206455, 0.0, 0.0, 0.0, 0.0024999999441206455, 0.0, 0.0, 0.0, 0.0024999999441206455]
angular_velocity: 
  x: 0.0
  y: 0.0
  z: 0.0
angular_velocity_covariance: [0.019999999552965164, 0.0, 0.0, 0.0, 0.019999999552965164, 0.0, 0.0, 0.0, 0.019999999552965164]
linear_acceleration: 
  x: -0.1478419452905655
  y: -0.09457096457481384
  z: 9.842562675476074
linear_acceleration_covariance: [0.03999999910593033, 0.0, 0.0, 0.0, 0.03999999910593033, 0.0, 0.0, 0.0, 0.03999999910593033]
---
header: 
  seq: 23133
  stamp: 
    secs: 1669693852
    nsecs: 941405788
  frame_id: "imu_link"
orientation: 
  x: -0.006323018576949835
  y: 0.007277215365320444
  z: -0.1833842396736145
  w: 0.9829897284507751
orientation_covariance: [0.0024999999441206455, 0.0, 0.0, 0.0, 0.0024999999441206455, 0.0, 0.0, 0.0, 0.0024999999441206455]
angular_velocity: 
  x: 0.0
  y: 0.0
  z: 0.0
angular_velocity_covariance: [0.019999999552965164, 0.0, 0.0, 0.0, 0.019999999552965164, 0.0, 0.0, 0.0, 0.019999999552965164]
linear_acceleration: 
  x: -0.1478419452905655
  y: -0.09457096457481384
  z: 9.842562675476074
linear_acceleration_covariance: [0.03999999910593033, 0.0, 0.0, 0.0, 0.03999999910593033, 0.0, 0.0, 0.0, 0.03999999910593033]
---
header: 
  seq: 23134
  stamp: 
    secs: 1669693852
    nsecs: 946405788
  frame_id: "imu_link"
orientation: 
  x: -0.005913857836276293
  y: 0.007847839035093784
  z: -0.18337741494178772
  w: 0.9829890727996826
orientation_covariance: [0.0024999999441206455, 0.0, 0.0, 0.0, 0.0024999999441206455, 0.0, 0.0, 0.0, 0.0024999999441206455]
angular_velocity: 
  x: 0.0
  y: 0.0
  z: 0.0
angular_velocity_covariance: [0.019999999552965164, 0.0, 0.0, 0.0, 0.019999999552965164, 0.0, 0.0, 0.0, 0.019999999552965164]
linear_acceleration: 
  x: -0.22086510062217712
  y: -0.10055647045373917
  z: 9.84376049041748
linear_acceleration_covariance: [0.03999999910593033, 0.0, 0.0, 0.0, 0.03999999910593033, 0.0, 0.0, 0.0, 0.03999999910593033]
---
header: 
  seq: 23135
  stamp: 
    secs: 1669693852
    nsecs: 953405788
  frame_id: "imu_link"
orientation: 
  x: -0.005358593538403511
  y: 0.007425796706229448
  z: -0.1833767592906952
  w: 0.9829956889152527
orientation_covariance: [0.0024999999441206455, 0.0, 0.0, 0.0, 0.0024999999441206455, 0.0, 0.0, 0.0, 0.0024999999441206455]
angular_velocity: 
  x: 0.0
  y: 0.0
  z: 0.0
